국가,도,시,유튜브 채널명,영상 제목,영상 링크,업로드일,장소 이름,맵 링크,주소,위도,경도,카테고리,여행 일차,방문 순서,타임라인
,,,,,,,,,,,,,,,
,,,,,"경주여행 1박2일 주요 가이드 총정리 / 아니,여기가 우리가 알던 경주가 맞다고?",,,,,,,,,,
대한민국,경상,경주,여코남 - 여행코스짜주는남자,"경주여행 1박2일 주요 가이드 총정리 / ""아니,여기가 우리가 알던 경주가 맞다고?""",https://www.youtube.com/watch?v=5TF2zJFvXdw&list=PL8z7KQfD7gudY2s4CIFJzaxpBnS8uh-AP&index=6,2023-10-07,경주동,https://place.map.kakao.com/1409961965,경북 경주시 황남동 275-4,35.8384421053048,129.2093882673,음식점 > 일식 > 일식집,1,1,0:00
대한민국,경상,경주,여코남 - 여행코스짜주는남자,"경주여행 1박2일 주요 가이드 총정리 / ""아니,여기가 우리가 알던 경주가 맞다고?""",https://www.youtube.com/watch?v=5TF2zJFvXdw&list=PL8z7KQfD7gudY2s4CIFJzaxpBnS8uh-AP&index=6,2023-10-07,선화,https://place.map.kakao.com/176560510,경북 경주시 사정동 1-4,35.838956839138,129.208934460633,음식점 > 카페 > 테마카페 > 디저트카페,1,2,0:00
대한민국,경상,경주,여코남 - 여행코스짜주는남자,"경주여행 1박2일 주요 가이드 총정리 / ""아니,여기가 우리가 알던 경주가 맞다고?""",https://www.youtube.com/watch?v=5TF2zJFvXdw&list=PL8z7KQfD7gudY2s4CIFJzaxpBnS8uh-AP&index=6,2023-10-07,경주대릉원,https://place.map.kakao.com/8288444,경북 경주시 황남동 31-1,35.83819105876200,129.21333399231400,"여행 > 관광,명소 > 문화유적 > 릉,묘,총",1,3,0:00
대한민국,경상,경주,여코남 - 여행코스짜주는남자,"경주여행 1박2일 주요 가이드 총정리 / ""아니,여기가 우리가 알던 경주가 맞다고?""",https://www.youtube.com/watch?v=5TF2zJFvXdw&list=PL8z7KQfD7gudY2s4CIFJzaxpBnS8uh-AP&index=6,2023-10-07,월정교,https://place.map.kakao.com/1839209698,경북 경주시 교동 274,35.82929954620110,129.21812129691900,"여행 > 관광,명소 > 문화유적",1,4,0:00
대한민국,경상,경주,여코남 - 여행코스짜주는남자,"경주여행 1박2일 주요 가이드 총정리 / ""아니,여기가 우리가 알던 경주가 맞다고?""",https://www.youtube.com/watch?v=5TF2zJFvXdw&list=PL8z7KQfD7gudY2s4CIFJzaxpBnS8uh-AP&index=6,2023-10-07,첨성대,https://place.map.kakao.com/8089382,경북 경주시 인왕동 839-1,35.83471481233600,129.21900018259600,"여행 > 관광,명소 > 문화유적",1,5,0:00
대한민국,경상,경주,여코남 - 여행코스짜주는남자,"경주여행 1박2일 주요 가이드 총정리 / ""아니,여기가 우리가 알던 경주가 맞다고?""",https://www.youtube.com/watch?v=5TF2zJFvXdw&list=PL8z7KQfD7gudY2s4CIFJzaxpBnS8uh-AP&index=6,2023-10-07,국립경주박물관,https://place.map.kakao.com/9666845,경북 경주시 인왕동 76,35.829233895353400,129.22795026492500,"문화,예술 > 문화시설 > 박물관",2,1,0:00
대한민국,경상,경주,여코남 - 여행코스짜주는남자,"경주여행 1박2일 주요 가이드 총정리 / ""아니,여기가 우리가 알던 경주가 맞다고?""",https://www.youtube.com/watch?v=5TF2zJFvXdw&list=PL8z7KQfD7gudY2s4CIFJzaxpBnS8uh-AP&index=6,2023-10-07,천군복합문화공간x에브리블랙,https://place.map.kakao.com/1428748139,경북 경주시 천군동 157-16,35.8343592192994,129.29083833009,음식점 > 카페,2,2,0:00
대한민국,경상,경주,여코남 - 여행코스짜주는남자,"경주여행 1박2일 주요 가이드 총정리 / ""아니,여기가 우리가 알던 경주가 맞다고?""",https://www.youtube.com/watch?v=5TF2zJFvXdw&list=PL8z7KQfD7gudY2s4CIFJzaxpBnS8uh-AP&index=6,2023-10-07,황남두꺼비식당,https://place.map.kakao.com/1952344699,경북 경주시 황남동 315-7,35.834487397456700,129.21090737271500,"음식점 > 한식 > 육류,고기 > 갈비",2,3,0:00
,,,,,,,,,,,,,,,
,,,,,"단 5분 만에 강릉 여행에 대한 모든 것 완벽 몰아보기! /혼자,연인,가족 여행 당일치기,1박2일 진짜 다 알려드리는 최종 정리",,,,,,,,,,
대한민국,강원,강릉,여코남 - 여행코스짜주는남자,"단 5분 만에 강릉 여행에 대한 모든 것 완벽 몰아보기! /혼자,연인,가족 여행 당일치기,1박2일 진짜 다 알려드리는 최종 정리",https://www.youtube.com/watch?v=5EYf3nb8UJ4&list=PL8z7KQfD7gudY2s4CIFJzaxpBnS8uh-AP&index=2,2024-01-20,하슬라아트월드,https://place.map.kakao.com/8143646,강원특별자치도 강릉시 강동면 정동진리 524-25,37.7058296552942,129.009485518837,"여행 > 관광,명소 > 테마파크",1,1,0:00
대한민국,강원,강릉,여코남 - 여행코스짜주는남자,"단 5분 만에 강릉 여행에 대한 모든 것 완벽 몰아보기! /혼자,연인,가족 여행 당일치기,1박2일 진짜 다 알려드리는 최종 정리",https://www.youtube.com/watch?v=5EYf3nb8UJ4&list=PL8z7KQfD7gudY2s4CIFJzaxpBnS8uh-AP&index=2,2024-01-20,뮤지엄망고,휴관,휴관,휴관,휴관,휴관,1,2,0:00
대한민국,강원,강릉,여코남 - 여행코스짜주는남자,"단 5분 만에 강릉 여행에 대한 모든 것 완벽 몰아보기! /혼자,연인,가족 여행 당일치기,1박2일 진짜 다 알려드리는 최종 정리",https://www.youtube.com/watch?v=5EYf3nb8UJ4&list=PL8z7KQfD7gudY2s4CIFJzaxpBnS8uh-AP&index=2,2024-01-20,대관령 삼양라운드힐,https://place.map.kakao.com/8305401,강원특별자치도 평창군 대관령면 횡계리 704-6,37.7242868085377,128.719733895659,"서비스,산업 > 축산업 > 농장,목장",1,3,0:00
대한민국,강원,강릉,여코남 - 여행코스짜주는남자,"단 5분 만에 강릉 여행에 대한 모든 것 완벽 몰아보기! /혼자,연인,가족 여행 당일치기,1박2일 진짜 다 알려드리는 최종 정리",https://www.youtube.com/watch?v=5EYf3nb8UJ4&list=PL8z7KQfD7gudY2s4CIFJzaxpBnS8uh-AP&index=2,2024-01-20,감자유원지,https://place.map.kakao.com/331311679,강원특별자치도 강릉시 임당동 103-12,37.7563511535003,128.897389776157,음식점 > 한식,1,4,0:00
대한민국,강원,강릉,여코남 - 여행코스짜주는남자,"단 5분 만에 강릉 여행에 대한 모든 것 완벽 몰아보기! /혼자,연인,가족 여행 당일치기,1박2일 진짜 다 알려드리는 최종 정리",https://www.youtube.com/watch?v=5EYf3nb8UJ4&list=PL8z7KQfD7gudY2s4CIFJzaxpBnS8uh-AP&index=2,2024-01-20,길손,https://place.map.kakao.com/11024114,강원특별자치도 강릉시 포남동 295-2,37.7799603563229,128.902306276744,"음식점 > 한식 > 해물,생선",2,1,0:00
대한민국,강원,강릉,여코남 - 여행코스짜주는남자,"단 5분 만에 강릉 여행에 대한 모든 것 완벽 몰아보기! /혼자,연인,가족 여행 당일치기,1박2일 진짜 다 알려드리는 최종 정리",https://www.youtube.com/watch?v=5EYf3nb8UJ4&list=PL8z7KQfD7gudY2s4CIFJzaxpBnS8uh-AP&index=2,2024-01-20,곳베이커리,https://place.map.kakao.com/106643436,강원특별자치도 강릉시 사천면 사천진리 262-7,37.8433720577454,128.872627309735,음식점 > 카페 > 테마카페 > 디저트카페,2,2,0:00
대한민국,강원,강릉,여코남 - 여행코스짜주는남자,"단 5분 만에 강릉 여행에 대한 모든 것 완벽 몰아보기! /혼자,연인,가족 여행 당일치기,1박2일 진짜 다 알려드리는 최종 정리",https://www.youtube.com/watch?v=5EYf3nb8UJ4&list=PL8z7KQfD7gudY2s4CIFJzaxpBnS8uh-AP&index=2,2024-01-20,이진리,https://place.map.kakao.com/1505222126,강원특별자치도 강릉시 교동 191-30,37.7620508277247,128.89251429077,음식점 > 카페 > 커피전문점,2,3,0:00
,,,,,,,,,,,,,,,
,,,,,[서울투어] 청량리 뚜벅이 여행코스 BEST5 / 청량리역 당일치기 여행 / 안동집 손칼국시 / 금성전파사&스타벅스 경동 1960 / 수호명과 / 플레임 스튜디오 / 산리오 마켓,,,,,,,,,,
대한민국,서울,서울,여코남 - 여행코스짜주는남자,[서울투어] 청량리 뚜벅이 여행코스 BEST5 / 청량리역 당일치기 여행 / 안동집 손칼국시 / 금성전파사&스타벅스 경동 1960 / 수호명과 / 플레임 스튜디오 / 산리오 마켓,https://youtu.be/FTpR_QOqFEQ?si=xsamjUq3ptFqmEar,2023-02-16,안동집 손칼국시,https://place.map.kakao.com/15629433,서울 동대문구 제기동 1021,37.5797596428982,127.039410716083,음식점 > 한식 > 국수,1,1,0:00
대한민국,서울,서울,여코남 - 여행코스짜주는남자,[서울투어] 청량리 뚜벅이 여행코스 BEST5 / 청량리역 당일치기 여행 / 안동집 손칼국시 / 금성전파사&스타벅스 경동 1960 / 수호명과 / 플레임 스튜디오 / 산리오 마켓,https://youtu.be/FTpR_QOqFEQ?si=xsamjUq3ptFqmEar,2023-02-16,금성전파사 새로고침센터,https://place.map.kakao.com/622648643,서울 동대문구 제기동 1019,37.57954183911740,127.03869511526900,"문화,예술 > 문화시설",1,2,0:00
대한민국,서울,서울,여코남 - 여행코스짜주는남자,[서울투어] 청량리 뚜벅이 여행코스 BEST5 / 청량리역 당일치기 여행 / 안동집 손칼국시 / 금성전파사&스타벅스 경동 1960 / 수호명과 / 플레임 스튜디오 / 산리오 마켓,https://youtu.be/FTpR_QOqFEQ?si=xsamjUq3ptFqmEar,2023-02-16,스타벅스 경동1960점,https://place.map.kakao.com/609996995,서울 동대문구 제기동 1019,37.57978511855370,127.0386612781180,음식점 > 카페 > 커피전문점 > 스타벅스,1,3,0:00
대한민국,서울,서울,여코남 - 여행코스짜주는남자,[서울투어] 청량리 뚜벅이 여행코스 BEST5 / 청량리역 당일치기 여행 / 안동집 손칼국시 / 금성전파사&스타벅스 경동 1960 / 수호명과 / 플레임 스튜디오 / 산리오 마켓,https://youtu.be/FTpR_QOqFEQ?si=xsamjUq3ptFqmEar,2023-02-16,수호명과,https://place.map.kakao.com/20225344,서울 동대문구 청량리동 618-1,37.584635266451400,127.04354912246200,"음식점 > 간식 > 제과,베이커리",1,4,0:00
대한민국,서울,서울,여코남 - 여행코스짜주는남자,[서울투어] 청량리 뚜벅이 여행코스 BEST5 / 청량리역 당일치기 여행 / 안동집 손칼국시 / 금성전파사&스타벅스 경동 1960 / 수호명과 / 플레임 스튜디오 / 산리오 마켓,https://youtu.be/FTpR_QOqFEQ?si=xsamjUq3ptFqmEar,2023-02-16,플레임 스튜디오,https://place.map.kakao.com/1232210252,서울 동대문구 청량리동 672,37.5835404530924,127.043837185155,"문화,예술 > 사진 > 사진관,포토스튜디오",1,5,0:00
대한민국,서울,서울,여코남 - 여행코스짜주는남자,[서울투어] 청량리 뚜벅이 여행코스 BEST5 / 청량리역 당일치기 여행 / 안동집 손칼국시 / 금성전파사&스타벅스 경동 1960 / 수호명과 / 플레임 스튜디오 / 산리오 마켓,https://youtu.be/FTpR_QOqFEQ?si=xsamjUq3ptFqmEar,2023-02-16,토이저러스 청량리점,https://place.map.kakao.com/224851817,서울 동대문구 전농동 588-1,37.5802363922807,127.048732749725,"가정,생활 > 유아 > 장난감,완구 > 토이저러스",1,6,0:00
,,,,,,,,,,,,,,,
,,,,,[ENG SUB] 여수여행만 5번! 실패 없는 여수여행코스 BEST 7 / 여수 현지인 친구 ONE PICK 맛집! / 여수 200%로 즐기고 싶다면 이 코스대로만 다녀오세요!,,,,,,,,,,
대한민국,전라,여수,여코남 - 여행코스짜주는남자,"[ENG SUB] 여수여행만 5번! 실패 없는 여수여행코스 BEST 7 / 여수 현지인 친구 ONE PICK 맛집! / 여수 200%로 즐기고 싶다면 ""이 코스""대로만 다녀오세요!",https://www.youtube.com/watch?v=MTKnln5ThV8,2023-05-06,석천식당,https://place.map.kakao.com/8925153,전남 여수시 봉산동 255-1,34.7351961968528,127.723481637989,"음식점 > 한식 > 해물,생선 > 게,대게",1,1,0:00
대한민국,전라,여수,여코남 - 여행코스짜주는남자,"[ENG SUB] 여수여행만 5번! 실패 없는 여수여행코스 BEST 7 / 여수 현지인 친구 ONE PICK 맛집! / 여수 200%로 즐기고 싶다면 ""이 코스""대로만 다녀오세요!",https://www.youtube.com/watch?v=MTKnln5ThV8,2023-05-06,오동도,https://place.map.kakao.com/8483282,전남 여수시 수정동,34.7445973535257,127.766287676838,"여행 > 관광,명소 > 섬 > 섬(내륙)",1,2,0:00
대한민국,전라,여수,여코남 - 여행코스짜주는남자,"[ENG SUB] 여수여행만 5번! 실패 없는 여수여행코스 BEST 7 / 여수 현지인 친구 ONE PICK 맛집! / 여수 200%로 즐기고 싶다면 ""이 코스""대로만 다녀오세요!",https://www.youtube.com/watch?v=MTKnln5ThV8,2023-05-06,아쿠아 플라넷,https://place.map.kakao.com/18983757,전남 여수시 수정동 774-1,34.7462208797333,127.748733971081,"문화,예술 > 문화시설 > 아쿠아리움",1,3,0:00
대한민국,전라,여수,여코남 - 여행코스짜주는남자,"[ENG SUB] 여수여행만 5번! 실패 없는 여수여행코스 BEST 7 / 여수 현지인 친구 ONE PICK 맛집! / 여수 200%로 즐기고 싶다면 ""이 코스""대로만 다녀오세요!",https://www.youtube.com/watch?v=MTKnln5ThV8,2023-05-06,이순신 광장,https://place.map.kakao.com/12107992,전남 여수시 중앙동 383,34.7394475965836,127.736049922969,"여행 > 관광,명소 > 광장",1,4,0:00
대한민국,전라,여수,여코남 - 여행코스짜주는남자,"[ENG SUB] 여수여행만 5번! 실패 없는 여수여행코스 BEST 7 / 여수 현지인 친구 ONE PICK 맛집! / 여수 200%로 즐기고 싶다면 ""이 코스""대로만 다녀오세요!",https://www.youtube.com/watch?v=MTKnln5ThV8,2023-05-06,여수 예술랜드,https://place.map.kakao.com/837966424,전남 여수시 돌산읍 평사리 1584,34.695090238479100,127.77706118773200,"문화,예술 > 문화시설",1,5,0:00
대한민국,전라,여수,여코남 - 여행코스짜주는남자,"[ENG SUB] 여수여행만 5번! 실패 없는 여수여행코스 BEST 7 / 여수 현지인 친구 ONE PICK 맛집! / 여수 200%로 즐기고 싶다면 ""이 코스""대로만 다녀오세요!",https://www.youtube.com/watch?v=MTKnln5ThV8,2023-05-06,여수 해상케이블카,https://place.map.kakao.com/387675092,전남 여수시 돌산읍 우두리 794-89,34.7305914837711,127.741531015302,"여행 > 관광,명소 > 케이블카",1,6,0:00
대한민국,전라,여수,여코남 - 여행코스짜주는남자,"[ENG SUB] 여수여행만 5번! 실패 없는 여수여행코스 BEST 7 / 여수 현지인 친구 ONE PICK 맛집! / 여수 200%로 즐기고 싶다면 ""이 코스""대로만 다녀오세요!",https://www.youtube.com/watch?v=MTKnln5ThV8,2023-05-06,여수 낭만 포차거리,https://place.map.kakao.com/1807637756,전남 여수시 종화동 300-3,34.73648684742070,127.74915280163100,"여행 > 관광,명소 > 테마거리",1,7,0:00
,,,,,,,,,,,,,,,
,,,,,"24년차 찐토박이가 추천하는 수원 당일치기 여행코스 BEST 5 /이 코스대로 돌면 남친,여친 안생길 수가 없다 ㅋㅋ",,,,,,,,,,
대한민국,경기,수원,여코남 - 여행코스짜주는남자,"24년차 찐토박이가 추천하는 수원 당일치기 여행코스 BEST 5 /이 코스대로 돌면 남친,여친 안생길 수가 없다 ㅋㅋ",https://www.youtube.com/watch?v=SrLvuoyWjzI,2023-04-01,요미 우돈 교자,https://place.map.kakao.com/281912002,경기 수원시 팔달구 신풍동 109-7,37.283996100236400,127.01223506702000,음식점 > 일식,1,1,0:00
대한민국,경기,수원,여코남 - 여행코스짜주는남자,"24년차 찐토박이가 추천하는 수원 당일치기 여행코스 BEST 5 /이 코스대로 돌면 남친,여친 안생길 수가 없다 ㅋㅋ",https://www.youtube.com/watch?v=SrLvuoyWjzI,2023-04-01,배드독호호클럽,https://place.map.kakao.com/150973233,경기 수원시 팔달구 북수동 125-1,37.2877918341647,127.015192543958,음식점 > 카페 > 테마카페 > 디저트카페,1,2,0:00
대한민국,경기,수원,여코남 - 여행코스짜주는남자,"24년차 찐토박이가 추천하는 수원 당일치기 여행코스 BEST 5 /이 코스대로 돌면 남친,여친 안생길 수가 없다 ㅋㅋ",https://www.youtube.com/watch?v=SrLvuoyWjzI,2023-04-01,탭,https://place.map.kakao.com/667365083,경기 수원시 팔달구 신풍동 52,37.2851764041535,127.012776541411,"가정,생활 > 패션 > 패션잡화점",1,3,0:00
대한민국,경기,수원,여코남 - 여행코스짜주는남자,"24년차 찐토박이가 추천하는 수원 당일치기 여행코스 BEST 5 /이 코스대로 돌면 남친,여친 안생길 수가 없다 ㅋㅋ",https://www.youtube.com/watch?v=SrLvuoyWjzI,2023-04-01,화성행궁 & 방화수류정,https://place.map.kakao.com/25049860,경기 수원시 팔달구 매향동 151,37.287505800070700,127.01807378117900,"여행 > 관광,명소 > 문화유적 > 유적지",1,4,0:00
대한민국,경기,수원,여코남 - 여행코스짜주는남자,"24년차 찐토박이가 추천하는 수원 당일치기 여행코스 BEST 5 /이 코스대로 돌면 남친,여친 안생길 수가 없다 ㅋㅋ",https://www.youtube.com/watch?v=SrLvuoyWjzI,2023-04-01,플라잉 수원,https://place.map.kakao.com/1141207437,경기 수원시 팔달구 지동 261-100,37.2872827250584,127.025743249322,"스포츠,레저 > 스포츠시설",1,5,0:00
,,,,,,,,,,,,,,,
,,,,,죽기전에 꼭 가봐야할 서울 혼자여행 코스 best 5 / 서울에서 혼자 즐기기 좋은 장소들만 선정했습니다!,,,,,,,,,,
대한민국,서울,서울,여코남 - 여행코스짜주는남자,죽기전에 꼭 가봐야할 서울 혼자여행 코스 best 5 / 서울에서 혼자 즐기기 좋은 장소들만 선정했습니다!,https://www.youtube.com/watch?v=geYaASCqJUk,2023-10-28,뮤직컴플렉스서울,https://place.map.kakao.com/365827968,서울 종로구 관훈동 155-2,37.57446722947600,126.9835539937140,음식점 > 카페,1,1,0:18
대한민국,서울,서울,여코남 - 여행코스짜주는남자,죽기전에 꼭 가봐야할 서울 혼자여행 코스 best 5 / 서울에서 혼자 즐기기 좋은 장소들만 선정했습니다!,https://www.youtube.com/watch?v=geYaASCqJUk,2023-10-28,최인아 책방,https://place.map.kakao.com/500799854,서울 강남구 역삼동 696-39,37.5060367130476,127.047931239033,"문화,예술 > 도서 > 서점",1,2,0:55
대한민국,서울,서울,여코남 - 여행코스짜주는남자,죽기전에 꼭 가봐야할 서울 혼자여행 코스 best 5 / 서울에서 혼자 즐기기 좋은 장소들만 선정했습니다!,https://www.youtube.com/watch?v=geYaASCqJUk,2023-10-28,Ofr 서울,https://place.map.kakao.com/1629712383,서울 종로구 창성동 150-2,37.580121448726800,126.97179921584700,"문화,예술 > 도서 > 서점",1,3,1:33
대한민국,서울,서울,여코남 - 여행코스짜주는남자,죽기전에 꼭 가봐야할 서울 혼자여행 코스 best 5 / 서울에서 혼자 즐기기 좋은 장소들만 선정했습니다!,https://www.youtube.com/watch?v=geYaASCqJUk,2023-10-28,멘야 유메미루,https://place.map.kakao.com/1377492683,서울 강남구 역삼동 704-4,37.505000210723,127.044198370295,음식점 > 일식 > 일본식라면,1,4,2:15
대한민국,서울,서울,여코남 - 여행코스짜주는남자,죽기전에 꼭 가봐야할 서울 혼자여행 코스 best 5 / 서울에서 혼자 즐기기 좋은 장소들만 선정했습니다!,https://www.youtube.com/watch?v=geYaASCqJUk,2023-10-28,치즈 인더스트리,영업종료,영업종료,영업종료,영업종료,영업종료,1,5,2:51